,City,Latitude,Longitude,Temperature,Cloudiness,Humidity,Wind,Country,Date
0,Sweetwater,25.7634,-80.3731,78.01,75,60,6.91,US,1616264529
1,Codrington,-38.2667,141.9667,58.75,100,90,7.52,AU,1616264529
2,Ushuaia,-54.8,-68.3,48.2,40,57,26.46,AR,1616264530
3,New Norfolk,-42.7826,147.0587,60.8,90,59,5.75,AU,1616263936
4,Vaini,-21.2,-175.2,75.2,40,100,3.44,TO,1616263949
5,Bredasdorp,-34.5322,20.0403,57.2,46,82,3.44,ZA,1616264253
6,Carnarvon,-24.8667,113.6333,78.8,0,83,10.36,AU,1616264015
7,Mossamedes,-15.1961,12.1522,74.16,41,76,8.79,AO,1616264531
8,Maniitsoq,65.4167,-52.9,30.45,100,87,6.78,GL,1616264531
9,Ilo,-17.6394,-71.3375,73.4,0,78,19.57,PE,1616264531
10,Busselton,-33.65,115.3333,69.98,0,46,5.39,AU,1616264532
11,Jamestown,42.097,-79.2353,54.0,1,21,1.66,US,1616264532
12,Vila Velha,-20.3297,-40.2925,84.2,40,65,10.36,BR,1616264533
13,Albany,42.6001,-73.9662,54.0,0,23,10.04,US,1616264533
14,Hobart,-42.8794,147.3294,60.8,90,59,5.75,AU,1616264294
15,Mataura,-46.1927,168.8643,53.01,83,95,4.0,NZ,1616264533
16,Eureka,40.8021,-124.1637,52.0,81,79,2.15,US,1616264534
17,Flekkefjord,58.2971,6.6607,43.0,100,94,18.79,NO,1616264534
18,Tiksi,71.6872,128.8694,-17.77,95,99,7.85,RU,1616264535
19,Dalbandin,28.8947,64.4101,71.47,61,34,4.81,PK,1616264535
20,Hermanus,-34.4187,19.2345,59.0,30,86,5.95,ZA,1616264535
21,Tuktoyaktuk,69.4541,-133.0374,-20.2,75,76,5.75,CA,1616264536
22,Ust-Tsilma,65.441,52.1498,4.26,51,96,2.98,RU,1616264536
23,Araouane,18.9048,-3.5265,87.55,0,9,7.16,ML,1616264537
24,Bathsheba,13.2167,-59.5167,80.6,20,54,19.57,BB,1616264537
25,Torbay,47.6666,-52.7314,28.99,75,68,21.85,CA,1616264537
26,Bullhead City,35.1478,-114.5683,78.01,40,27,9.22,US,1616264538
27,Butaritari,3.0707,172.7902,81.48,6,79,16.98,KI,1616264538
28,Gaspé,48.8334,-64.4819,30.2,75,51,4.61,CA,1616264539
29,Uíge,-7.6087,15.0613,69.94,61,95,1.88,AO,1616264539
30,Ancud,-41.8697,-73.8203,64.99,75,52,6.91,CL,1616264539
31,Saskylakh,71.9167,114.0833,-31.54,100,99,9.48,RU,1616264540
32,Atuona,-9.8,-139.0333,79.61,52,80,14.5,PF,1616264540
33,Castro,-24.7911,-50.0119,77.27,69,74,4.85,BR,1616264540
34,Nelson Bay,-32.7167,152.15,68.0,75,100,16.11,AU,1616264541
35,Hirara,24.8,125.2833,72.84,92,84,0.81,JP,1616264541
36,Upernavik,72.7868,-56.1549,3.56,97,96,11.77,GL,1616264542
37,Bethel,41.3712,-73.414,55.4,1,22,8.05,US,1616264542
38,Norman Wells,65.282,-126.8329,-7.6,75,71,10.36,CA,1616264542
39,Sola,-13.8833,167.55,73.4,95,100,1.14,VU,1616264543
40,East London,-33.0153,27.9116,69.8,0,88,14.97,ZA,1616264386
41,Matina,10.0761,-83.2895,82.4,40,74,4.61,CR,1616264543
42,Tasiilaq,65.6145,-37.6368,24.8,90,86,40.29,GL,1616264544
43,Dingcheng,32.1272,115.0394,48.09,98,81,2.08,CN,1616264544
44,Khatanga,71.9667,102.5,-36.2,72,97,10.13,RU,1616264544
45,Puerto Ayora,-0.7393,-90.3518,84.2,20,74,10.36,EC,1616264545
46,Zemio,5.0314,25.1361,73.44,76,91,5.39,CF,1616264545
47,Hilo,19.7297,-155.09,68.0,90,88,5.75,US,1616264546
48,Ponta do Sol,32.6667,-17.1,62.01,40,77,14.97,PT,1616264546
49,Fallon,39.4735,-118.7774,46.4,75,36,11.5,US,1616264546
50,Rikitea,-23.1203,-134.9692,79.45,93,77,9.15,PF,1616264547
51,Balaguer,41.7912,0.8109,54.0,20,35,6.91,ES,1616264547
52,Punta Arenas,-53.15,-70.9167,51.8,40,54,34.52,CL,1616264548
53,Jumla,29.2747,82.1838,41.83,31,77,3.29,NP,1616264548
54,Pevek,69.7008,170.3133,-26.03,67,100,1.86,RU,1616264548
55,Yellowknife,62.456,-114.3525,10.0,75,72,20.71,CA,1616264549
56,Cape Town,-33.9258,18.4232,66.0,20,68,21.85,ZA,1616264501
57,Port Keats,-14.25,129.55,78.01,100,83,5.5,AU,1616264549
58,Yulara,-25.2406,130.9889,64.4,90,100,5.75,AU,1616264550
59,Kamenka,51.3223,42.7678,22.23,92,91,5.97,RU,1616264550
60,Qaanaaq,77.484,-69.3632,-8.09,99,99,5.3,GL,1616264550
61,Haridwar,29.9667,78.1667,67.91,0,26,3.51,IN,1616264551
62,Walvis Bay,-22.9575,14.5053,63.0,3,89,5.01,NA,1616264551
63,Bengkulu,-3.8004,102.2655,77.09,99,84,3.87,ID,1616264552
64,Tateyama,34.9833,139.8667,62.01,100,83,4.0,JP,1616264552
65,Souillac,-20.5167,57.5167,78.8,75,89,12.66,MU,1616264552
66,Caravelas,-17.7125,-39.2481,82.51,1,67,8.12,BR,1616264553
67,Sharan,54.8167,54.0,23.23,100,95,10.96,RU,1616264553
68,Zheleznodorozhnyy,55.7503,38.0042,28.4,0,59,2.24,RU,1616264553
69,Lebu,-37.6167,-73.65,64.02,69,63,9.78,CL,1616264554
70,Kruisfontein,-34.0033,24.7314,69.01,29,81,1.99,ZA,1616264554
71,Prado,-17.3411,-39.2208,82.27,3,66,9.75,BR,1616264555
72,Severo-Kuril'sk,50.6789,156.125,23.27,86,84,21.81,RU,1616264555
73,Ribeira Grande,38.5167,-28.7,62.6,20,77,16.11,PT,1616264556
74,Saint-Augustin,51.226,-58.6502,21.63,0,69,10.31,CA,1616264556
75,Marshfield,44.6689,-90.1718,54.0,1,28,12.66,US,1616264556
76,Avarua,-21.2078,-159.775,78.8,75,94,6.91,CK,1616264426
77,Rūdbār,30.15,62.6,74.66,74,32,6.38,AF,1616264557
78,Cabo San Lucas,22.8909,-109.9124,84.99,20,26,5.75,MX,1616264464
79,Cairns,-16.9167,145.7667,73.4,94,83,5.75,AU,1616264304
80,Vallenar,-28.5708,-70.7581,83.68,0,23,10.71,CL,1616264558
81,Mar del Plata,-38.0023,-57.5575,66.99,90,88,5.75,AR,1616264506
82,Bilma,18.6853,12.9164,91.2,3,13,6.24,NE,1616264558
83,Roald,62.5833,6.1333,39.2,75,75,13.8,NO,1616264558
84,Tcholliré,8.4022,14.1698,87.93,83,35,2.37,CM,1616264559
85,Arica,-18.475,-70.3042,73.4,0,60,16.11,CL,1616264559
86,Lake Havasu City,34.4839,-114.3224,75.2,1,25,8.05,US,1616264560
87,Uitenhage,-33.7576,25.3971,69.01,75,94,13.8,ZA,1616264560
88,Yar-Sale,66.8333,70.8333,-13.97,100,87,13.04,RU,1616264560
89,Hong Kong,22.2855,114.1577,75.0,12,85,0.65,HK,1616264561
90,Ingham,42.6,-84.3833,55.0,1,25,4.61,US,1616264561
91,Tuatapere,-46.1333,167.6833,53.01,63,95,4.0,NZ,1616264562
92,Mwinilunga,-11.7358,24.4293,64.78,18,90,2.48,ZM,1616264562
93,Samarai,-10.6167,150.6667,82.8,74,77,7.72,PG,1616264292
94,Acapulco de Juárez,16.8634,-99.8901,84.2,1,65,5.75,MX,1616264563
95,Bodden Town,19.2833,-81.25,84.2,20,65,10.36,KY,1616264563
96,Provideniya,64.3833,-173.3,0.7,100,81,14.52,RU,1616264563
97,Tazovsky,67.4667,78.7,-18.8,70,81,14.38,RU,1616264565
98,Saint Paul Harbor,57.79,-152.4072,35.6,90,87,4.61,US,1616264285
99,Faanui,-16.4833,-151.75,82.71,45,64,5.48,PF,1616264565
100,Port Elizabeth,-33.918,25.5701,66.2,75,94,13.8,ZA,1616264502
101,Barrow,71.2906,-156.7887,-14.8,1,91,3.44,US,1616264566
102,Tongchuanshi,35.0806,109.0897,38.46,100,28,15.35,CN,1616264566
103,Mount Isa,-20.7333,139.5,75.2,100,94,5.91,AU,1616264388
104,Kapaa,22.0752,-159.319,71.6,40,78,19.57,US,1616264429
105,Saint George,37.1041,-113.5841,68.0,40,34,29.93,US,1616264567
106,Ilulissat,69.2167,-51.1,23.0,40,54,4.61,GL,1616264568
107,Salalah,17.0151,54.0924,78.8,0,73,3.44,OM,1616264568
108,Vanavara,60.34,102.2797,-7.92,79,90,8.61,RU,1616264568
109,Shumskiy,54.8318,99.1328,23.72,98,76,4.54,RU,1616264569
110,Cherskiy,68.75,161.3,-22.45,0,87,4.34,RU,1616264569
111,Havøysund,70.9963,24.6622,32.0,75,74,12.66,NO,1616264570
112,Bruneck,46.7958,11.9364,28.4,0,26,5.3,IT,1616264570
113,Manado,1.487,124.8455,77.0,20,94,2.91,ID,1616264571
114,Indianola,41.3581,-93.5574,55.0,1,37,13.8,US,1616264571
115,Kumul,42.8,93.45,38.08,0,17,6.98,CN,1616264345
116,Oranjestad,12.524,-70.027,84.2,75,65,17.27,AW,1616264572
117,Puerto Caimito,8.8667,-79.7167,90.0,20,62,8.05,PA,1616264572
118,Port Lincoln,-34.7333,135.8667,68.0,21,77,8.12,AU,1616264573
119,Port Alfred,-33.5906,26.891,69.69,14,91,10.09,ZA,1616264573
120,Ahtopol,42.1,27.95,43.97,100,76,10.65,BG,1616264574
121,Shelburne,44.0787,-80.2041,55.99,0,34,9.01,CA,1616264574
122,Puerto Escondido,15.85,-97.0667,86.83,2,50,8.5,MX,1616264574
123,Cidreira,-30.1811,-50.2056,79.27,11,76,18.43,BR,1616264379
124,Hofn,64.2539,-15.2082,42.4,100,56,5.84,IS,1616264575
125,Grindavik,63.8424,-22.4338,41.0,90,87,24.16,IS,1616264575
126,Port-Cartier,50.0334,-66.8654,26.6,40,63,6.91,CA,1616264576
127,Bulgan,48.8125,103.5347,16.3,78,68,4.74,MN,1616264576
128,Wenatchee,47.4235,-120.3103,48.99,75,53,4.0,US,1616264576
129,Bajos de Haina,18.4154,-70.0332,87.8,40,62,9.22,DO,1616264577
130,Saint-Philippe,-21.3585,55.7679,80.6,0,74,13.8,RE,1616264577
131,Ostrovnoy,68.0531,39.5131,19.02,77,91,17.98,RU,1616264578
132,Amuntai,-2.4177,115.2494,75.69,100,96,1.05,ID,1616264578
133,Dunedin,-45.8742,170.5036,55.99,17,80,1.01,NZ,1616264578
134,Ouésso,1.6136,16.0517,71.67,100,91,3.47,CG,1616264579
135,Lagoa,39.05,-27.9833,58.26,50,80,13.69,PT,1616264579
136,Ginda,30.6945,78.4932,53.65,8,26,7.27,IN,1616264580
137,Kirakira,-10.4544,161.9205,79.45,100,82,5.77,SB,1616264580
138,Jiayuguan City,39.8167,98.3,27.72,55,30,5.66,CN,1616264580
139,Nikolskoye,59.7035,30.7861,28.0,90,74,17.9,RU,1616264581
140,Paamiut,61.994,-49.6678,31.08,82,94,3.51,GL,1616264581
141,Thompson,55.7435,-97.8558,50.0,20,40,12.66,CA,1616264582
142,Río Gallegos,-51.6226,-69.2181,57.2,75,30,31.07,AR,1616264582
143,Riva,38.9521,-76.578,53.01,1,29,6.91,US,1616264582
144,Atambua,-9.1061,124.8925,74.8,73,84,2.1,ID,1616264583
145,Rocha,-34.4833,-54.3333,83.32,90,63,8.1,UY,1616264584
146,Maykor,59.0059,55.88,20.97,97,92,8.72,RU,1616264414
147,Palmer,42.1584,-72.3287,55.99,20,20,17.27,US,1616264585
148,Kahului,20.8947,-156.47,73.4,20,78,16.11,US,1616264585
149,São João da Barra,-21.6403,-41.0511,86.0,20,54,13.8,BR,1616264587
150,Clyde River,70.4692,-68.5914,-11.2,1,70,5.75,CA,1616264331
151,Honiara,-9.4333,159.95,77.27,97,82,3.18,SB,1616264587
152,Lata,40.1629,-8.3327,57.0,0,33,8.99,PT,1616264588
153,Mackay,-21.15,149.2,77.0,75,94,9.22,AU,1616264588
154,Mata,40.683,-7.4592,54.0,0,27,7.0,PT,1616264589
155,Guerrero Negro,27.9769,-114.0611,71.15,39,52,13.94,MX,1616264589
156,Bluff,-46.6,168.3333,53.01,58,95,4.0,NZ,1616264589
157,Arona,28.0996,-16.681,66.99,75,59,13.8,ES,1616264590
158,Ponta Delgada,37.7333,-25.6667,59.0,75,72,11.5,PT,1616264590
159,Kaitangata,-46.2817,169.8464,57.0,51,85,4.0,NZ,1616264590
160,Hervey Bay,-25.2986,152.8535,73.99,57,91,14.65,AU,1616264591
161,Basco,20.4487,121.9702,78.46,47,86,16.26,PH,1616264591
162,Shingū,33.7333,135.9833,62.94,100,97,10.18,JP,1616264591
163,Uray,60.1247,64.7758,17.6,96,94,8.61,RU,1616264592
164,Fortuna,40.5982,-124.1573,54.0,20,93,5.75,US,1616264560
165,Kuytun,54.3419,101.5036,23.68,100,80,6.26,RU,1616264592
166,Fukuechō,32.6881,128.8419,57.99,100,89,20.67,JP,1616264593
167,Balkanabat,39.5108,54.3671,53.64,10,52,5.68,TM,1616264593
168,Chicama,-7.8447,-79.1469,75.2,85,78,11.5,PE,1616264594
169,Sistranda,63.7256,8.834,39.2,40,65,34.52,NO,1616264594
170,Marsá Maţrūḩ,31.3525,27.2453,62.6,0,88,14.97,EG,1616264595
171,Kiama,-34.6833,150.8667,71.01,100,80,14.0,AU,1616264595
172,Opuwo,-18.0607,13.84,75.29,97,63,4.85,NA,1616264595
173,Chui,-33.6971,-53.4616,83.23,44,60,10.09,UY,1616264596
174,Haderslev,55.2538,9.4898,41.0,75,100,19.57,DK,1616264596
175,Mumford,5.2618,-0.759,82.45,21,76,10.25,GH,1616264599
176,Hasaki,35.7333,140.8333,57.2,75,94,3.44,JP,1616264599
177,Ossora,59.2353,163.0719,2.16,100,91,3.27,RU,1616264600
178,Giohar,2.7809,45.5005,79.93,17,79,16.06,SO,1616264600
179,Elmina,5.0898,-1.348,82.58,33,76,10.25,GH,1616264600
180,Privodino,61.0781,46.5044,15.31,100,95,4.25,RU,1616264601
181,Linxia Chengguanzhen,35.6003,103.2064,30.16,100,49,1.5,CN,1616264601
182,The Valley,18.217,-63.0578,81.0,20,65,17.27,AI,1616264602
183,Karratha,-20.7377,116.8463,75.87,0,56,13.06,AU,1616264603
184,Lyuban',52.7985,28.0048,27.73,83,83,7.63,BY,1616264603
185,Kasongo,-4.45,26.6667,73.18,90,83,2.95,CD,1616264604
186,Medina del Campo,41.3124,-4.9141,43.0,0,45,23.02,ES,1616264604
187,Mâncio Lima,-7.6142,-72.8958,84.2,75,74,5.75,BR,1616264604
188,Sakaraha,-22.9,44.5333,73.85,69,84,3.83,MG,1616264605
189,Aksu,41.1231,80.2644,42.96,67,40,5.77,CN,1616264605
190,Jacobabad,28.281,68.4388,78.85,95,32,7.2,PK,1616264526
191,Kavaratti,10.5669,72.642,83.19,0,67,7.16,IN,1616264315
192,Xinmin,41.9908,122.8253,33.8,0,69,8.95,CN,1616264606
193,Broken Hill,-31.95,141.4333,68.0,100,64,12.66,AU,1616264606
194,Kyshtovka,56.555,76.6271,34.27,100,95,15.1,RU,1616264607
195,Fort-Shevchenko,44.5086,50.263,37.0,40,86,3.51,KZ,1616264607
196,Pilot Butte,50.4668,-104.4178,48.2,100,46,18.41,CA,1616264609
197,Banda Aceh,5.5577,95.3222,80.28,100,78,4.43,ID,1616264609
198,Westport,41.1415,-73.3579,54.0,1,34,12.66,US,1616264609
199,Pacific Grove,36.6177,-121.9166,55.4,1,62,6.91,US,1616264320
200,Longyearbyen,78.2186,15.6401,17.6,40,67,11.5,SJ,1616264610
201,Tilichiki,60.4667,166.1,-16.85,63,89,7.38,RU,1616264610
202,Rayong,12.8333,101.4333,82.0,8,84,4.94,TH,1616264610
203,San Ramon,37.7799,-121.978,55.99,20,58,11.5,US,1616264481
204,Sisimiut,66.9395,-53.6735,24.12,84,76,8.95,GL,1616264611
205,Geraldton,-28.7667,114.6,66.2,1,68,5.75,AU,1616264611
206,Manavālakurichi,8.1333,77.3,84.2,20,74,3.0,IN,1616264612
207,Pizhanka,57.4604,48.542,20.66,100,94,9.19,RU,1616264612
208,Eskilstuna,59.3666,16.5077,42.8,75,70,8.05,SE,1616264613
209,São Filipe,14.8961,-24.4956,73.89,44,65,7.02,CV,1616264613
210,Adrar,20.5022,-10.0711,82.35,0,7,9.57,MR,1616264613
211,Khor,47.8861,134.9464,28.8,100,97,7.2,RU,1616264521
212,Noumea,-22.2763,166.4572,69.8,0,83,10.27,NC,1616264614
213,Dawei,14.0833,98.2,74.48,0,80,2.57,MM,1616264586
214,Stokmarknes,68.5646,14.9108,36.0,100,82,18.01,NO,1616264615
215,Coquimbo,-29.9533,-71.3436,68.0,0,49,17.27,CL,1616264615
216,Esperance,-33.8667,121.9,60.8,13,88,10.36,AU,1616264616
217,Tautira,-17.7333,-149.15,84.2,75,65,4.61,PF,1616264616
218,Xuchang,34.0167,113.8167,50.0,99,46,6.71,CN,1616264616
219,Kristiansund,63.1115,7.732,39.2,90,65,24.16,NO,1616264617
220,Lorengau,-2.0226,147.2712,82.74,100,73,5.12,PG,1616264617
221,Tombouctou,20.0,-3.0,86.2,0,10,8.43,ML,1616264617
222,Bustamante,26.5333,-100.5,69.8,0,39,7.4,MX,1616264618
223,Victor Harbor,-35.5667,138.6167,73.99,20,90,6.64,AU,1616264618
224,Aklavik,68.2191,-135.0107,-11.2,40,70,3.44,CA,1616264619
225,Itoman,26.1247,127.6694,71.6,75,94,10.36,JP,1616264619
226,Buchanan,5.8808,-10.0467,84.2,75,79,8.25,LR,1616264353
227,Srednekolymsk,67.45,153.6833,-14.01,0,88,2.53,RU,1616264620
228,São Gabriel da Cachoeira,-0.1303,-67.0892,82.4,40,78,5.75,BR,1616264620
229,Kulhudhuffushi,6.6221,73.07,83.19,27,69,4.61,MV,1616264621
230,George,-33.963,22.4617,62.6,90,94,11.5,ZA,1616264621
231,Merauke,-8.4667,140.3333,78.31,100,85,5.01,ID,1616264621
232,Henties Bay,-22.116,14.2845,63.0,2,89,5.01,NA,1616264622
233,Sivas Province,39.7916,37.0019,35.6,75,93,9.22,TR,1616264375
234,Yenagoa,4.9247,6.2642,81.81,79,76,3.38,NG,1616264622
235,Cepu,-7.1475,111.5906,75.58,94,91,6.04,ID,1616264623
236,Saldanha,-33.0117,17.9442,62.6,0,67,12.66,ZA,1616264623
237,Kalmar,56.6616,16.3616,39.2,90,81,17.27,SE,1616264623
238,Lüderitz,-26.6481,15.1594,69.35,0,64,29.12,NA,1616264583
239,Ahipara,-35.1667,173.1667,55.58,2,84,7.38,NZ,1616264624
240,Isangel,-19.55,169.2667,71.6,20,94,7.87,VU,1616264624
241,Black River,18.0264,-77.8487,82.4,20,69,9.22,JM,1616264625
242,Erenhot,43.6475,111.9767,24.89,0,31,12.77,CN,1616264625
243,Álamos,27.0167,-108.9333,91.83,0,6,4.36,MX,1616264626
244,Betim,-19.9678,-44.1983,84.2,40,47,9.22,BR,1616264414
245,Port Hardy,50.6996,-127.4199,41.0,75,75,8.05,CA,1616264626
246,Muzhi,65.3667,64.6667,-10.86,100,97,12.73,RU,1616264627
247,Lucapa,-8.4192,20.7447,70.38,46,88,1.52,AO,1616264627
248,Dikson,73.5069,80.5464,-23.73,96,84,20.76,RU,1616264627
249,Rawson,-43.3002,-65.1023,66.13,53,46,16.31,AR,1616264381
250,Tigil',57.8,158.6667,1.11,95,97,3.33,RU,1616264628
251,Haines Junction,60.7522,-137.5108,-4.0,84,50,1.14,CA,1616264628
252,Pisco,-13.7,-76.2167,78.8,0,57,12.66,PE,1616264629
253,San Quintín,30.4833,-115.95,66.29,0,64,20.74,MX,1616264629
254,Andilamena,-17.0167,48.5833,64.98,59,95,3.85,MG,1616264629
255,George Town,5.4112,100.3354,84.99,20,78,2.3,MY,1616264630
256,Bereda,43.2686,-7.5406,45.0,2,58,7.0,ES,1616264630
257,Sawtell,-30.3833,153.1,70.0,90,94,4.61,AU,1616264631
258,Dhubri,26.0333,89.9667,74.98,0,32,4.09,IN,1616264631
259,Bowen,-20.0167,148.2333,75.2,75,94,9.22,AU,1616264631
260,Mana,5.6592,-53.7767,80.78,29,77,8.81,GF,1616264632
261,Mountain Home,43.133,-115.6912,48.2,75,53,24.16,US,1616264449
262,San Cristobal,7.7669,-72.225,80.6,40,78,9.22,VE,1616264632
263,Fort Frances,48.5999,-93.4003,55.4,1,35,12.66,CA,1616264586
264,Umluj,25.0213,37.2685,79.39,0,43,8.28,SA,1616264633
265,Māngrol,21.1167,70.1167,77.18,0,69,9.06,IN,1616264633
266,Mareeba,-17.0,145.4333,73.4,81,83,5.75,AU,1616264633
267,Brae,60.3964,-1.353,42.8,20,81,13.8,GB,1616264634
268,Province of Mantua,45.1667,10.7833,44.01,41,57,1.99,IT,1616264634
269,Santa Maria,-29.6842,-53.8069,93.2,75,46,10.36,BR,1616264634
270,Tiarei,-17.5333,-149.3333,84.2,75,65,4.61,PF,1616264460
271,Pangnirtung,66.1451,-65.7125,-13.0,1,70,2.62,CA,1616264635
272,Casablanca,33.5928,-7.6192,59.0,40,47,21.85,MA,1616264404
273,Cabedelo,-6.9811,-34.8339,84.2,75,65,14.97,BR,1616264635
274,Naryan-Mar,67.6713,53.087,-2.25,8,91,8.7,RU,1616264636
275,Huntsville,34.7304,-86.5861,61.0,1,38,10.36,US,1616264400
276,Mandera,3.9366,41.867,89.98,66,44,3.29,KE,1616264411
277,Jinchang,38.4953,102.1739,27.0,0,28,4.25,CN,1616264637
278,Chumikan,54.7183,135.315,12.67,72,89,4.68,RU,1616264637
279,Vila Franca do Campo,37.7167,-25.4333,59.0,75,72,11.5,PT,1616264371
280,Dzaoudzi,-12.7887,45.2699,80.6,0,89,3.44,YT,1616264639
281,Hithadhoo,-0.6,73.0833,83.26,100,69,7.87,MV,1616264639
282,Gizo Government Station,-8.103,156.8419,80.28,99,77,1.66,SB,1616264639
283,Thayetmyo,19.3167,95.1833,73.08,64,47,2.28,MM,1616264640
284,College,64.8569,-147.8028,3.0,1,64,9.22,US,1616264640
285,Siocon,7.7061,122.1353,79.56,92,85,6.49,PH,1616264640
286,Lavrentiya,65.5833,-171.0,-4.07,100,85,14.34,RU,1616264641
287,Mahébourg,-20.4081,57.7,78.8,75,89,12.66,MU,1616264641
288,Iskateley,67.6803,53.1512,-2.43,9,91,8.68,RU,1616264641
289,Broome,42.2506,-75.833,53.01,1,29,12.66,US,1616264642
290,Dingle,10.9995,122.6711,77.23,3,85,6.38,PH,1616264642
291,Kalabo,-14.97,22.6814,69.8,24,87,3.47,ZM,1616264643
292,Takoradze,4.8845,-1.7554,82.26,0,74,10.02,GH,1616264643
293,Tocache,-8.1842,-76.5125,84.11,100,71,0.69,PE,1616264643
294,Los Llanos de Aridane,28.6585,-17.9182,66.2,75,59,13.8,ES,1616264644
295,Ponoka,52.6768,-113.5815,37.4,63,48,10.36,CA,1616264644
296,Gisborne,-38.6533,178.0042,55.99,85,94,11.01,NZ,1616264645
297,St. George's,12.0564,-61.7485,82.4,20,69,20.71,GD,1616264432
298,Vaitape,-16.5167,-151.75,82.67,44,64,5.3,PF,1616264645
299,Ibrā’,22.6906,58.5334,78.04,44,26,8.57,OM,1616264646
300,Aripuanã,-9.1667,-60.6333,76.39,100,96,2.01,BR,1616264646
301,Narsaq,60.9167,-46.05,35.6,75,87,4.61,GL,1616264646
302,Jieshi,22.8134,115.8257,77.0,8,82,1.23,CN,1616264647
303,Zhigansk,66.7697,123.3711,14.45,100,93,27.38,RU,1616264647
304,Belogorsk,50.9158,128.4611,19.58,100,83,6.51,RU,1616264531
305,Mabai,23.0128,104.4508,62.37,91,97,2.77,CN,1616264648
306,Ziarat,30.3823,67.7282,50.94,95,51,7.18,PK,1616264648
307,Ulaanbaatar,47.9077,106.8832,5.0,0,66,2.24,MN,1616264648
308,Liberal,37.0431,-100.921,62.6,1,39,28.77,US,1616264649
309,Conde,-7.2597,-34.9075,84.2,75,65,14.97,BR,1616264430
310,Maputo,-25.9653,32.5892,80.6,0,74,6.91,MZ,1616264649
311,Flinders,-34.5833,150.8552,71.01,100,87,5.01,AU,1616264482
312,Yangi Marg`ilon,40.4272,71.7189,51.8,100,76,11.5,UZ,1616264650
313,Mayo,38.8876,-76.5119,53.01,1,29,6.91,US,1616264650
314,Fairview Heights,38.5889,-89.9904,55.99,1,50,4.61,US,1616264651
315,Anaconda,46.1285,-112.9423,36.0,90,69,4.03,US,1616264651
316,Yakeshi,49.2833,120.7333,10.72,46,88,4.72,CN,1616264652
317,Winburg,-28.518,27.0093,60.31,88,78,14.43,ZA,1616264652
318,Vao,-22.6667,167.4833,75.7,71,75,18.86,NC,1616264652
319,Khoy,38.5504,44.9535,48.31,100,44,6.33,IR,1616264653
320,Hualmay,-11.0964,-77.6139,78.17,25,63,10.4,PE,1616264653
321,Tazmalt,36.3868,4.3989,47.14,60,83,5.77,DZ,1616264653
322,Udachny,66.4167,112.4,-23.39,100,94,34.38,RU,1616264654
323,Tambacounda,13.7539,-13.7586,102.2,0,44,6.91,SN,1616264654
324,Birnin Kebbi,12.4539,4.1975,94.71,87,9,7.58,NG,1616264655
325,Ushtobe,45.2514,77.9838,37.45,100,82,3.2,KZ,1616264655
326,Xiangfan,32.0422,112.1448,50.88,97,55,11.7,CN,1616264467
327,Baiima,8.1,-11.85,95.04,25,30,2.06,SL,1616264656
328,Lucea,18.451,-78.1736,82.4,20,69,9.22,JM,1616264656
329,Pacifica,37.6138,-122.4869,55.99,1,66,12.66,US,1616264656
330,Cascais,38.6979,-9.4215,61.0,0,51,14.97,PT,1616264657
331,Bowral,-34.4667,150.4167,71.01,100,87,4.0,AU,1616264657
332,Myitkyina,25.3833,97.4,72.77,99,32,1.99,MM,1616264658
333,Nombre de Dios,23.85,-104.2333,69.8,1,14,2.3,MX,1616264658
334,Wanning,18.8003,110.3967,74.25,82,92,4.12,CN,1616264658
335,Camacupa,-12.0167,17.4833,65.01,54,89,2.59,AO,1616264659
336,Rundu,-17.9333,19.7667,73.06,60,62,3.89,NA,1616264659
337,Bereket,39.2446,55.5154,53.91,17,55,7.14,TM,1616264660
338,Necochea,-38.5473,-58.7368,70.0,100,68,7.4,AR,1616264660
339,Mount Gambier,-37.8333,140.7667,59.0,94,88,5.75,AU,1616264660
340,Stratoni,40.5141,23.8247,45.0,100,89,7.0,GR,1616264661
341,Fraser,42.5392,-82.9494,52.0,1,43,6.91,US,1616264661
342,Bārmer,25.75,71.3833,79.75,0,21,7.2,IN,1616264662
343,Oktyabr'skoye,43.0645,44.7417,39.2,92,81,8.95,RU,1616264662
344,Inuvik,68.3499,-133.7218,-11.2,90,77,1.14,CA,1616264662
345,Eydhafushi,5.1033,73.0708,83.01,4,70,4.81,MV,1616264663
346,Soyo,-6.1349,12.3689,81.27,79,82,7.54,AO,1616264663
347,Lompoc,34.6391,-120.4579,57.99,1,47,12.66,US,1616264442
348,Nichinan,31.6,131.3667,60.01,87,100,3.0,JP,1616264664
349,Ambulu,-8.345,113.6058,76.21,55,87,2.89,ID,1616264664
350,Tanout,14.9709,8.8879,92.79,23,11,8.93,NE,1616264664
351,Collie,-33.3667,116.15,67.59,0,38,3.53,AU,1616264665
352,Rafrāf,37.1904,10.1837,55.4,75,94,12.66,TN,1616264665
353,Grootfontein,-19.5667,18.1167,69.03,55,72,3.2,NA,1616264665
354,Kibala,9.1104,18.3463,93.2,0,33,0.89,TD,1616264666
355,San Patricio,28.017,-97.5169,69.8,75,52,10.36,US,1616264666
356,Henderson,36.0397,-114.9819,69.8,20,28,24.16,US,1616264564
357,Bambous Virieux,-20.3428,57.7575,81.0,75,89,12.66,MU,1616264667
358,Chokurdakh,70.6333,147.9167,-19.34,81,100,2.39,RU,1616264667
359,Ketchikan,55.3422,-131.6461,35.6,90,75,3.44,US,1616264667
360,Tiznit Province,29.5833,-9.5,54.34,47,72,19.04,MA,1616264668
361,Talcahuano,-36.7167,-73.1167,69.8,20,43,8.05,CL,1616264668
362,Leningradskiy,69.3833,178.4167,-14.66,100,87,1.07,RU,1616264668
363,Ballina,-28.8667,153.5667,71.6,75,94,5.75,AU,1616264669
364,Watsa,3.0372,29.5355,66.58,81,95,8.52,CD,1616264669
365,Tocopilla,-22.092,-70.1979,74.21,33,68,8.9,CL,1616264669
366,San Luis de la Paz,21.3,-100.5167,71.01,65,38,1.01,MX,1616264670
367,Wakefield,53.6809,-1.499,48.99,98,86,7.0,GB,1616264670
368,São José da Coroa Grande,-8.8978,-35.1478,82.47,8,68,11.74,BR,1616264671
369,Düzce,40.8389,31.1639,44.98,100,94,3.31,TR,1616264671
370,Kalangala,-0.3089,32.225,75.2,20,78,11.5,UG,1616264671
371,Owensboro,37.7742,-87.1133,60.01,1,33,4.59,US,1616264415
372,Artyom,40.4723,50.333,41.0,76,93,4.61,AZ,1616264672
373,Merano,46.6682,11.1595,44.6,0,15,10.36,IT,1616264584
374,Bouca,6.5105,18.2733,77.47,99,60,9.15,CF,1616264672
375,Flin Flon,54.7682,-101.865,51.8,75,37,5.75,CA,1616264673
376,Viadana,44.9333,10.5333,44.6,0,42,6.91,IT,1616264673
377,Kununurra,-15.7667,128.7333,75.2,40,100,10.36,AU,1616264673
378,Tibati,6.4667,12.6333,70.18,81,86,5.12,CM,1616264674
379,Mongaguá,-24.0931,-46.6208,87.01,75,79,6.91,BR,1616264674
380,Lahaina,20.8783,-156.6825,73.4,20,78,16.11,US,1616264674
381,Grand Gaube,-20.0064,57.6608,81.0,5,83,7.0,MU,1616264675
382,Nouakchott,18.0858,-15.9785,77.0,41,50,24.16,MR,1616264675
383,Port Augusta,-32.5,137.7667,64.4,100,94,2.3,AU,1616264676
384,Porosozero,62.7191,32.727,25.32,100,93,9.31,RU,1616264676
385,San Benito,36.6166,-121.0844,57.99,19,72,1.99,US,1616264676
386,Lipin Bor,60.2622,37.9763,17.2,100,91,11.3,RU,1616264677
387,Katsuura,35.1333,140.3,62.01,97,83,4.0,JP,1616264677
388,Kourou,5.1552,-52.6478,82.0,90,100,4.61,GF,1616264678
389,Macrohon,10.0797,124.9431,80.58,85,81,7.94,PH,1616264678
390,Nanortalik,60.1432,-45.2371,36.05,100,98,14.52,GL,1616264473
391,Raudeberg,61.9875,5.1352,39.0,94,90,22.48,NO,1616264679
392,Auki,-8.7676,160.7034,77.29,94,88,2.55,SB,1616264680
393,Mahanoro,-19.9,48.8,77.29,51,79,1.99,MG,1616264680
394,Methóni,36.8197,21.7049,61.0,75,82,6.91,GR,1616264680
395,Luau,-10.7073,22.2247,67.96,38,86,1.43,AO,1616264681
396,Tevaitoa,-16.7833,-151.5,82.92,60,63,5.44,PF,1616264681
397,Uppsala County,60.0,17.75,42.8,40,70,10.36,SE,1616264557
398,Tortolì,39.9256,9.6572,46.4,75,81,17.27,IT,1616264682
399,Bestöbe,52.4994,73.0975,34.63,100,86,18.54,KZ,1616264682
400,Belaya Gora,68.5333,146.4167,-17.3,43,93,1.41,RU,1616264682
401,Sibolga,1.7427,98.7792,76.46,100,87,3.44,ID,1616264683
402,Puerto Baquerizo Moreno,-0.9,-89.6,80.6,75,89,5.75,EC,1616264551
403,Kathu,7.9178,98.3332,88.0,20,83,6.44,TH,1616264683
404,Tomatlán,19.9333,-105.25,91.81,0,26,9.98,MX,1616264684
405,Fort Nelson,58.8053,-122.7002,8.6,75,66,10.36,CA,1616264684
406,Dale,38.1689,-86.99,60.8,1,35,4.59,US,1616264684
407,Fairbanks,64.8378,-147.7164,3.0,1,64,9.22,US,1616264494
408,Kawalu,-7.3817,108.2082,72.32,81,93,1.83,ID,1616264685
409,Jamame,0.0722,42.7506,78.22,95,80,9.44,SO,1616264685
410,Comodoro Rivadavia,-45.8667,-67.5,64.4,0,48,12.66,AR,1616264652
411,Aitape,-3.1374,142.3475,78.87,100,84,1.97,PG,1616264686
412,Santo Tomas,14.1079,121.1414,82.4,20,74,5.75,PH,1616264686
413,Kaseda-shirakame,31.4167,130.3167,60.01,98,100,3.0,JP,1616264687
414,Barra de Tecoanapa,16.5167,-98.75,84.22,0,54,10.58,MX,1616264687
415,Ampanihy,-24.7,44.75,79.88,71,59,8.81,MG,1616264687
416,Puksoozero,62.5903,40.6066,16.57,100,92,10.85,RU,1616264688
417,Te Anau,-45.4167,167.7167,49.26,82,92,1.21,NZ,1616264688
418,Chilca,-12.5211,-76.7372,80.6,0,54,9.22,PE,1616264688
419,Bayangol,50.6977,103.4656,9.28,67,86,3.2,RU,1616264689
420,Benghazi,32.1167,20.0667,68.32,9,50,6.38,LY,1616264689
421,Constitución,-35.3333,-72.4167,66.22,32,57,7.49,CL,1616264690
422,Bonthe,7.5264,-12.505,82.74,48,55,11.65,SL,1616264690
423,Yumaguzino,52.9041,56.3933,23.31,96,97,6.17,RU,1616264690
424,Alofi,-19.0595,-169.9187,75.2,95,100,3.44,NU,1616264691
425,Vila,42.0304,-8.1588,53.01,0,49,13.0,PT,1616264691
426,Sept-Îles,50.2001,-66.3821,26.6,40,63,6.91,CA,1616264692
427,Turukhansk,65.8167,87.9833,-8.82,55,74,16.82,RU,1616264475
428,Borba,-4.3878,-59.5939,83.73,64,83,3.33,BR,1616264692
429,Kavieng,-2.5744,150.7967,82.9,53,76,8.99,PG,1616264692
430,Shache,38.4167,77.2406,45.68,43,29,7.58,CN,1616264693
431,Gīdolē,5.65,37.3667,64.36,66,62,6.8,ET,1616264693
432,Port Hawkesbury,45.6169,-61.3485,37.0,90,51,11.5,CA,1616264694
433,Ixtapa,20.7,-105.2,78.8,1,47,8.05,MX,1616264694
434,Agirish,61.9247,63.0231,4.69,100,94,8.43,RU,1616264694
435,Zelenogorskiy,55.0333,87.0,33.8,0,44,15.66,RU,1616264474
436,Novaya Bryan’,51.7159,108.2691,19.4,63,73,4.47,RU,1616264695
437,Sambava,-14.2667,50.1667,78.33,93,86,8.95,MG,1616264695
438,Tual,-5.6667,132.75,83.86,71,67,4.59,ID,1616264696
439,Abnūb,27.2696,31.1511,87.8,0,20,12.66,EG,1616264696
440,Āsosa,10.0667,34.5333,78.03,77,37,1.12,ET,1616264697
441,Beringovskiy,63.05,179.3167,-4.77,100,92,14.67,RU,1616264566
442,Lingating,8.3317,124.6289,75.99,82,92,4.0,PH,1616264697
443,Poya,-21.35,165.15,72.43,99,86,5.17,NC,1616264697
444,Bladel,51.3683,5.2208,46.99,90,70,8.05,NL,1616264698
445,Margate,51.3813,1.3862,50.0,40,72,3.0,GB,1616264698
446,Hamilton,39.1834,-84.5333,57.99,1,23,5.77,US,1616264683
447,Kirkwall,58.9848,-2.9587,46.4,75,76,23.02,GB,1616264699
448,Airai,-8.9266,125.4092,60.87,83,86,2.21,TL,1616264699
449,Mehamn,71.0357,27.8492,31.35,100,83,16.35,NO,1616264699
450,Ust'-Kan,50.9276,84.761,25.2,87,62,6.22,RU,1616264475
451,Alekseyevka,50.6309,38.6903,31.82,97,78,1.86,RU,1616264700
452,Mnogovershinnyy,53.9353,139.9242,13.57,20,78,3.56,RU,1616264700
453,Uglekamensk,43.2172,133.2303,28.51,91,90,1.79,RU,1616264701
454,Valentín Gómez Farías,28.2167,-106.5833,66.6,0,22,6.91,MX,1616264701
455,Empório,40.4833,21.55,35.6,100,93,3.44,GR,1616264702
456,Zelenets,61.8849,50.7489,19.4,75,93,4.47,RU,1616264702
457,Arraial do Cabo,-22.9661,-42.0278,89.6,0,74,18.41,BR,1616264702
458,Ukiah,39.1502,-123.2078,52.0,1,62,6.55,US,1616264213
459,Jiwani,25.05,61.7417,77.45,3,75,8.75,PK,1616264523
460,Domna,51.8971,113.1573,21.2,75,58,13.42,RU,1616264703
461,Wangqing,43.3218,129.7634,33.3,100,98,3.4,CN,1616264703
462,Wyndham,37.6985,-77.6125,55.0,1,25,5.75,US,1616264704
463,Teknāf,20.8624,92.3058,73.15,51,60,6.58,BD,1616264704
464,Inta,66.0317,60.1659,10.11,94,92,0.96,RU,1616264705
465,Caucayá,-0.1934,-74.7819,84.02,67,77,4.68,CO,1616264705
466,Great Bend,38.3645,-98.7648,62.01,1,47,24.16,US,1616264642
467,Padang,-0.9492,100.3543,75.2,75,94,1.14,ID,1616264706
468,Ýpsonas,34.6884,32.9574,60.8,0,72,13.8,CY,1616264706
469,Kuusamo,65.9667,29.1833,26.6,0,93,6.91,FI,1616264707
470,Nemuro,43.3236,145.575,30.25,100,76,12.8,JP,1616264707
471,Touros,-5.1989,-35.4608,86.0,20,58,17.27,BR,1616264707
472,Phan Thiet,10.9333,108.1,75.45,23,92,5.86,VN,1616264708
473,Waddān,29.1614,16.139,76.95,3,12,4.56,LY,1616264708
474,Siniscola,40.5719,9.6922,48.2,0,57,6.91,IT,1616264708
475,Yeppoon,-23.1333,150.7333,75.2,90,94,9.22,AU,1616264709
476,Nhulunbuy,-12.2333,136.7667,78.8,75,94,3.44,AU,1616264709
477,Loukhi,66.0764,33.0381,25.47,99,93,4.59,RU,1616264535
478,Vadinsk,53.6916,43.0574,20.23,99,90,4.79,RU,1616264710
479,Ust'-Kulom,61.6864,53.6902,17.37,99,95,6.55,RU,1616264710
480,Riyadh,24.6877,46.7219,77.0,0,20,6.91,SA,1616264710
481,Calvinia,-31.4707,19.776,68.97,0,30,5.3,ZA,1616264711
482,Baião,-2.7906,-49.6717,86.49,92,61,2.15,BR,1616264711
483,Desaguadero,-16.5656,-69.0417,51.76,60,55,1.72,PE,1616264712
484,Pasān,22.85,82.2,71.11,13,30,1.19,IN,1616264712
485,Phalaborwa,-23.943,31.1411,75.2,9,73,4.61,ZA,1616264712
486,Dumas,35.8656,-101.9732,64.0,1,36,24.16,US,1616264713
487,Matara,5.9485,80.5353,78.22,87,83,2.3,LK,1616264713
488,Arrifes,37.7667,-25.7,59.0,75,72,11.5,PT,1616264713
489,Zyryanka,65.75,150.85,-11.87,0,82,7.14,RU,1616264714
490,Panjāb,34.388,67.0233,34.47,95,97,4.41,AF,1616264714
491,Lola,7.8,-8.5333,77.76,72,82,3.36,GN,1616264714
492,Poronaysk,49.2167,143.1167,19.04,94,80,1.77,RU,1616264715
493,Berlevåg,70.8578,29.0864,31.86,100,82,18.99,NO,1616264715
494,Chincholi,17.4667,77.4333,77.49,61,32,7.31,IN,1616264717
495,Shebunino,46.4339,141.8603,28.2,100,73,15.57,RU,1616264717
496,Daura,11.5538,11.4085,92.79,96,17,8.05,NG,1616264717
497,Batiano,7.5534,126.4907,75.92,92,86,3.31,PH,1616264718
498,Neutraubling,48.9833,12.2,30.99,90,47,0.76,DE,1616264718
499,Kasongo-Lunda,-6.4667,16.8167,75.33,95,84,1.07,CD,1616264718
500,Maragogi,-9.0122,-35.2225,82.18,10,69,12.19,BR,1616264719
501,Seddon,-37.8068,144.8916,66.0,75,88,3.27,AU,1616264719
502,Dnestrovsc,46.6222,29.9133,37.4,0,65,4.47,MD,1616264720
503,High Level,58.5169,-117.136,15.8,75,86,11.5,CA,1616264720
504,Petrokamenskoye,57.716,60.6484,18.05,100,95,6.71,RU,1616264720
505,Jūybār,36.6412,52.9124,52.25,0,78,4.74,IR,1616264721
506,Palauig,15.435,119.9045,80.08,15,77,4.47,PH,1616264721
507,Whitehorse,60.7161,-135.0538,10.0,20,78,2.3,CA,1616264721
508,Sant Julià de Loria,42.4625,1.4825,16.0,13,92,11.1,AD,1616264722
509,Urubichá,-15.3833,-62.95,79.38,72,94,4.16,BO,1616264722
510,Raja,8.4596,25.678,87.69,81,39,4.79,SS,1616264723
511,Boyabat,41.4689,34.7667,42.94,100,90,4.32,TR,1616264723
512,Staryy Nadym,65.6118,72.6842,-5.8,100,84,17.0,RU,1616264476
513,Arrondissement de Saint-Denis,48.9167,2.3333,46.99,0,57,4.61,FR,1616264723
514,Nishihara,26.1842,127.7558,71.6,75,94,10.36,JP,1616264724
515,Meadow Lake,34.8014,-106.5436,69.01,20,17,10.36,US,1616264724
516,Chapais,49.7834,-74.8492,46.4,1,36,12.66,CA,1616264725
517,Kozhva,65.1073,57.0459,10.94,98,96,2.55,RU,1616264725
518,Nouadhibou,20.931,-17.0347,66.2,57,72,23.02,MR,1616264725
519,Vardø,70.3705,31.1107,31.21,95,78,21.41,NO,1616264726
520,Yaan,7.3833,8.5667,84.2,100,60,11.05,NG,1616264726
521,Mrakovo,52.7161,56.6244,24.01,100,96,6.8,RU,1616264727
522,Khanbari,27.3747,87.2039,63.25,29,42,5.39,NP,1616264727
523,Bambanglipuro,-7.95,110.2833,77.23,89,87,4.36,ID,1616264727
524,Sitka,57.0531,-135.33,33.8,90,69,11.5,US,1616264728
525,Cayenne,4.9333,-52.3333,82.0,90,100,4.61,GF,1616264728
526,Curumaní,9.1999,-73.5427,95.56,87,40,2.26,CO,1616264728
527,Yerbogachën,61.2767,108.0108,-22.18,67,91,7.78,RU,1616264729
528,Peterhead,57.5058,-1.7981,48.2,75,81,25.32,GB,1616264729
529,Léo,11.1,-2.1,87.6,100,37,3.56,BF,1616264730
530,Petropavlovsk-Kamchatskiy,53.0452,158.6483,15.8,42,73,2.24,RU,1616264730
531,Susanville,40.4163,-120.653,42.8,75,42,11.5,US,1616264730
532,Puerto Carreño,6.189,-67.4859,98.67,28,24,15.03,CO,1616264731
533,Morón,-34.6534,-58.6198,69.01,100,89,1.99,AR,1616264508
534,Baharly,38.4362,57.4316,57.09,22,48,2.35,TM,1616264731
535,Libreville,0.3925,9.4537,78.8,20,89,4.61,GA,1616264732
536,Bud,39.447,-86.1758,55.0,0,43,7.2,US,1616264732
537,Kiryat Gat,31.61,34.7642,66.99,3,100,1.01,IL,1616264732
538,Batemans Bay,-35.7167,150.1833,71.01,100,83,1.99,AU,1616264733
539,Yumen,40.2833,97.2,27.9,67,24,7.72,CN,1616264733
540,Khuldābād,20.05,75.1833,73.08,11,39,1.81,IN,1616264465
541,Poum,-20.2333,164.0167,78.08,100,77,12.91,NC,1616264734
542,Amapá,1.0,-52.0,81.09,100,87,2.57,BR,1616264734
543,Kapit,2.0167,112.9333,75.02,100,99,0.98,MY,1616264735
544,Mühlhausen,51.2167,10.45,36.0,75,40,1.01,DE,1616264735
545,Kamaishi,39.2667,141.8833,47.46,100,97,8.34,JP,1616264735
546,Beloha,-25.1667,45.05,76.91,37,75,12.33,MG,1616264736
547,Bandarbeyla,9.4942,50.8122,78.19,0,75,11.77,SO,1616264463
548,San Matías,-16.3667,-58.4,83.03,65,80,7.83,BO,1616264736
549,Luena,-11.7833,19.9167,65.23,12,81,2.93,AO,1616264737
550,Nabīnagar,23.8917,90.9733,82.4,40,61,7.0,BD,1616264737
551,Buin,-33.7333,-70.75,73.4,20,31,4.61,CL,1616264737
552,Surgut,61.25,73.4167,23.0,75,100,4.47,RU,1616264738
553,Ziyang,29.2497,117.8547,50.36,100,87,3.91,CN,1616264738
554,Harar,9.3094,42.1258,62.28,21,36,4.36,ET,1616264739
